{
  "as_of": "2026-07-09",
  "facilities": [
    {
      "name": "SpaceX Starbase",
      "operator_slug": "spacex",
      "type": "launch",
      "lat": 25.9971,
      "lon": -97.1554,
      "blurb": "SpaceX Starship launch and test site in South Texas; the surrounding company town incorporated as the city of Starbase in May 2025 and now also serves as SpaceX's official corporate headquarters.",
      "source_url": "https://dig.watch/updates/spacex-headquarters-officially-moves-to-texas-city-of-starbase"
    },
    {
      "name": "SpaceX Hawthorne",
      "operator_slug": "spacex",
      "type": "production",
      "lat": 33.9207,
      "lon": -118.3278,
      "blurb": "SpaceX's original campus and a major Falcon 9/Dragon manufacturing site; SpaceX's official corporate headquarters relocated to Starbase, Texas.",
      "source_url": "https://dig.watch/updates/spacex-headquarters-officially-moves-to-texas-city-of-starbase"
    },
    {
      "name": "Blue Origin Kent",
      "operator_slug": "blue-origin",
      "type": "hq",
      "lat": 47.4023,
      "lon": -122.2515,
      "blurb": "Blue Origin headquarters and production campus: BE-4 and New Glenn engineering, BE-3 production, Blue Moon research and development.",
      "source_url": "https://choosewashingtonstate.com/blue-origin-adds-new-space/"
    },
    {
      "name": "Blue Origin Huntsville",
      "operator_slug": "blue-origin",
      "type": "production",
      "lat": 34.716,
      "lon": -86.672,
      "blurb": "Rocket engine plant in Cummings Research Park building the BE-4 and BE-3U, opened February 2020.",
      "source_url": "https://huntsvillebusinessjournal.com/news/2020/02/17/blue-origin-launches-engine-building-plant/"
    },
    {
      "name": "ICEYE HQ",
      "operator_slug": "iceye",
      "type": "hq",
      "lat": 60.1861,
      "lon": 24.8278,
      "blurb": "ICEYE headquarters at Maarintie 6, Espoo, Finland.",
      "source_url": "https://www.iceye.com/contact"
    },
    {
      "name": "Planet HQ",
      "operator_slug": "planet",
      "type": "hq",
      "lat": 37.7817,
      "lon": -122.3954,
      "blurb": "Planet headquarters at 645 Harrison Street, San Francisco.",
      "source_url": "https://www.planet.com/contact/"
    },
    {
      "name": "Umbra HQ",
      "operator_slug": "umbra",
      "type": "hq",
      "lat": 34.4208,
      "lon": -119.6982,
      "blurb": "Umbra headquarters in downtown Santa Barbara, California.",
      "source_url": "https://umbra.space/contact/"
    },
    {
      "name": "BlackSky HQ",
      "operator_slug": "blacksky",
      "type": "hq",
      "lat": 38.9553,
      "lon": -77.4139,
      "blurb": "BlackSky headquarters at 2411 Dulles Corner Park, Herndon, Virginia.",
      "source_url": "http://blacksky.com/contact-us/"
    },
    {
      "name": "Kineis HQ",
      "operator_slug": "kineis",
      "type": "hq",
      "lat": 43.5484,
      "lon": 1.489,
      "blurb": "Kineis headquarters at 11 rue Hermes, Parc Technologique du Canal, Ramonville-Saint-Agne, France.",
      "source_url": "https://www.kineis.com/en/contact/"
    }
  ]
}
